[
    {
        "name": "Garden of Dreams",
        "city": "Kathmandu",
        "lat": 27.7147,
        "lng": 85.3168
    },
    {
        "name": "Patan Durbar Square",
        "city": "Lalitpur",
        "lat": 27.6738,
        "lng": 85.3233
    },
    {
        "name": "Bhaktapur Durbar Square",
        "city": "Bhaktapur",
        "lat": 27.6720,
        "lng": 85.4294
    },
    {
        "name": "Maitighar Mandala",
        "city": "Kathmandu",
        "lat": 27.6938,
        "lng": 85.3216
    },
    {
        "name": "Nagarkot",
        "city": "Bhaktapur",
        "lat": 27.7176,
        "lng": 85.5186
    },
    {
        "name": "Jhamsikhel",
        "city": "Lalitpur",
        "lat": 27.6766,
        "lng": 85.3150
    },
    {
        "name": "Basantapur Durbar Square",
        "city": "Kathmandu",
        "lat": 27.7033,
        "lng": 85.3056
    }
]